<?xml version="1.0" encoding="UTF-8"?><gpx version="1.1" creator="Air Navigation Pro for iOS and Android" xmlns="http://www.topografix.com/GPX/1/1" xmlns:xsi="http://www.w3.org/2001/XMLSchema-instance" xsi:schemaLocation="http://www.topografix.com/GPX/1/1 http://www.topografix.com/GPX/1/1/gpx.xsd">    <metadata>        <extensions>            <userDefinedSpeed>61.733333</userDefinedSpeed>        </extensions>    </metadata>    <wpt lat="23.7183333669193" lon="-15.9319444697052">        <ele>11</ele>        <name>GMMH</name>        <desc>Dakhla</desc>        <type>Airport</type>        <extensions>            <planned_altitude_after>162</planned_altitude_after>        </extensions>    </wpt>    <wpt lat="23.0110541628401" lon="-16.1556243896484">        <ele>0</ele>        <name>WP002</name>        <desc>WP002</desc>        <type>Unknown Type</type>        <extensions>            <planned_altitude>609.6</planned_altitude>        </extensions>    </wpt>    <wpt lat="22.28139" lon="-16.64833">        <ele>8</ele>        <name>BAHIA DE SAN CIPRIANO</name>        <desc>BAHIA DE SAN CIPRIANO</desc>        <type>Unknown Type</type>    </wpt>    <wpt lat="21.80639" lon="-16.965">        <ele>0</ele>        <name>CAP CARBEIRO</name>        <desc>CAP CARBEIRO</desc>        <type>Unknown Type</type>    </wpt>    <wpt lat="21.37683" lon="-16.98717">        <ele>12</ele>        <name>WP005</name>        <desc>WP005</desc>        <type>Unknown Type</type>    </wpt>    <wpt lat="21.1616666351061" lon="-16.9233332942205">        <ele>0</ele>        <name>N (NOVEMBRE)</name>        <desc>GQPP</desc>        <type>Fix</type>    </wpt>    <wpt lat="21.1033333113818" lon="-16.9349999989546">        <ele>0</ele>        <name>NE (NOVEMBRE ECHO)</name>        <desc>GQPP</desc>        <type>Fix</type>    </wpt>    <wpt lat="21.0233333507302" lon="-17.0083333369599">        <ele>0</ele>        <name>N2 (NOVEMBRE DEUX)</name>        <desc>GQPP</desc>        <type>Fix</type>    </wpt>    <wpt lat="20.9330999704156" lon="-17.0299999799131">        <ele>3</ele>        <name>GQPP</name>        <desc>NOUADHIBOU</desc>        <type>Airport</type>        <extensions/>    </wpt>    <rte>        <name>2022-09-22 Dakhla - Nouadhibou-1</name>        <rtept lat="23.7183333669193" lon="-15.9319444697052">            <ele>11</ele>            <name>GMMH</name>            <desc>Dakhla</desc>            <type>Airport</type>            <extensions>                <planned_altitude_after>162</planned_altitude_after>            </extensions>        </rtept>        <rtept lat="23.0110541628401" lon="-16.1556243896484">            <ele>0</ele>            <name>WP002</name>            <desc>WP002</desc>            <type>Unknown Type</type>            <extensions>                <planned_altitude>609.6</planned_altitude>            </extensions>        </rtept>        <rtept lat="22.28139" lon="-16.64833">            <ele>8</ele>            <name>BAHIA DE SAN CIPRIANO</name>            <desc>BAHIA DE SAN CIPRIANO</desc>            <type>Unknown Type</type>        </rtept>        <rtept lat="21.80639" lon="-16.965">            <ele>0</ele>            <name>CAP CARBEIRO</name>            <desc>CAP CARBEIRO</desc>            <type>Unknown Type</type>        </rtept>        <rtept lat="21.37683" lon="-16.98717">            <ele>12</ele>            <name>WP005</name>            <desc>WP005</desc>            <type>Unknown Type</type>        </rtept>        <rtept lat="21.1616666351061" lon="-16.9233332942205">            <ele>0</ele>            <name>N (NOVEMBRE)</name>            <desc>GQPP</desc>            <type>Fix</type>        </rtept>        <rtept lat="21.1033333113818" lon="-16.9349999989546">            <ele>0</ele>            <name>NE (NOVEMBRE ECHO)</name>            <desc>GQPP</desc>            <type>Fix</type>        </rtept>        <rtept lat="21.0233333507302" lon="-17.0083333369599">            <ele>0</ele>            <name>N2 (NOVEMBRE DEUX)</name>            <desc>GQPP</desc>            <type>Fix</type>        </rtept>        <rtept lat="20.9330999704156" lon="-17.0299999799131">            <ele>3</ele>            <name>GQPP</name>            <desc>NOUADHIBOU</desc>            <type>Airport</type>            <extensions/>        </rtept>    </rte></gpx>