<?xml version="1.0" encoding="UTF-8"?><gpx version="1.1" creator="Air Navigation Pro for iOS and Android" xmlns="http://www.topografix.com/GPX/1/1" xmlns:xsi="http://www.w3.org/2001/XMLSchema-instance" xsi:schemaLocation="http://www.topografix.com/GPX/1/1 http://www.topografix.com/GPX/1/1/gpx.xsd">    <metadata>        <extensions>            <userDefinedSpeed>61.733333</userDefinedSpeed>        </extensions>    </metadata>    <wpt lat="33.5936110993561" lon="-7.46444442489282">        <ele>101</ele>        <name>GMMT</name>        <desc>CASABLANCA / TIT MELLIL</desc>        <type>Airport</type>        <extensions>            <planned_altitude_after>245</planned_altitude_after>        </extensions>    </wpt>    <wpt lat="33.73516" lon="-7.65875">        <ele>0</ele>        <name>WP002</name>        <desc>WP002</desc>        <type>Unknown Type</type>    </wpt>    <wpt lat="33.2308333090327" lon="-8.51500001884499">        <ele>31</ele>        <name>BASMA</name>        <desc>BASMA</desc>        <type>Fix</type>    </wpt>    <wpt lat="32.558596528102" lon="-9.27725315093994">        <ele>0</ele>        <name>WP004</name>        <desc>WP004</desc>        <type>Unknown Type</type>        <extensions>            <planned_altitude>609.6</planned_altitude>        </extensions>    </wpt>    <wpt lat="32.2833000176115" lon="-9.23330003674754">        <ele>52.1208000183105</ele>        <name>GMMS</name>        <desc>Safi Airport</desc>        <type>Airport</type>        <extensions/>    </wpt>    <wpt lat="31.3871815194044" lon="-9.84956073760986">        <ele>0</ele>        <name>WP006</name>        <desc>WP006</desc>        <type>Unknown Type</type>        <extensions>            <planned_altitude>609.6</planned_altitude>        </extensions>    </wpt>    <wpt lat="30.6475000553099" lon="-9.89000032515212">        <ele>0</ele>        <name>KOPIR</name>        <desc>KOPIR</desc>        <type>Significant point</type>    </wpt>    <wpt lat="30.3494444131373" lon="-9.77722217927146">        <ele>0</ele>        <name>ARGAB</name>        <desc>ARGAB</desc>        <type>Significant point</type>    </wpt>    <wpt lat="30.3225000013798" lon="-9.41138886662958">        <ele>77</ele>        <name>GMAD</name>        <desc>AGADIR / Al Massira</desc>        <type>Airport</type>        <extensions/>    </wpt>    <rte>        <name>2022-09-19 Casablanca Tit Mellil - AGADIR  Al Massira</name>        <rtept lat="33.5936110993561" lon="-7.46444442489282">            <ele>101</ele>            <name>GMMT</name>            <desc>CASABLANCA / TIT MELLIL</desc>            <type>Airport</type>            <extensions>                <planned_altitude_after>245</planned_altitude_after>            </extensions>        </rtept>        <rtept lat="33.73516" lon="-7.65875">            <ele>0</ele>            <name>WP002</name>            <desc>WP002</desc>            <type>Unknown Type</type>        </rtept>        <rtept lat="33.2308333090327" lon="-8.51500001884499">            <ele>31</ele>            <name>BASMA</name>            <desc>BASMA</desc>            <type>Fix</type>        </rtept>        <rtept lat="32.558596528102" lon="-9.27725315093994">            <ele>0</ele>            <name>WP004</name>            <desc>WP004</desc>            <type>Unknown Type</type>            <extensions>                <planned_altitude>609.6</planned_altitude>            </extensions>        </rtept>        <rtept lat="32.2833000176115" lon="-9.23330003674754">            <ele>52.1208000183105</ele>            <name>GMMS</name>            <desc>Safi Airport</desc>            <type>Airport</type>            <extensions/>        </rtept>        <rtept lat="31.3871815194044" lon="-9.84956073760986">            <ele>0</ele>            <name>WP006</name>            <desc>WP006</desc>            <type>Unknown Type</type>            <extensions>                <planned_altitude>609.6</planned_altitude>            </extensions>        </rtept>        <rtept lat="30.6475000553099" lon="-9.89000032515212">            <ele>0</ele>            <name>KOPIR</name>            <desc>KOPIR</desc>            <type>Significant point</type>        </rtept>        <rtept lat="30.3494444131373" lon="-9.77722217927146">            <ele>0</ele>            <name>ARGAB</name>            <desc>ARGAB</desc>            <type>Significant point</type>        </rtept>        <rtept lat="30.3225000013798" lon="-9.41138886662958">            <ele>77</ele>            <name>GMAD</name>            <desc>AGADIR / Al Massira</desc>            <type>Airport</type>            <extensions/>        </rtept>    </rte></gpx>