<?xml version="1.0" encoding="UTF-8"?><gpx version="1.1" creator="Air Navigation Pro for iOS and Android" xmlns="http://www.topografix.com/GPX/1/1" xmlns:xsi="http://www.w3.org/2001/XMLSchema-instance" xsi:schemaLocation="http://www.topografix.com/GPX/1/1 http://www.topografix.com/GPX/1/1/gpx.xsd">    <metadata>        <extensions>            <userDefinedSpeed>61.733333</userDefinedSpeed>        </extensions>    </metadata>    <wpt lat="43.5877800073944" lon="1.49862000980449">        <ele>140.207992553711</ele>        <name>LFCL</name>        <desc>TOULOUSE LASBORDES</desc>        <type>Airport</type>        <extensions>            <planned_altitude_after>300</planned_altitude_after>        </extensions>    </wpt>    <wpt lat="43.4833333031115" lon="1.6666666574002">        <ele>242</ele>        <name>SL</name>        <desc>LFBO</desc>        <type>Fix</type>    </wpt>    <wpt lat="42.7238999968521" lon="1.23580000044642">        <ele>2389</ele>        <name>NATPI</name>        <desc>NATPI</desc>        <type>Significant point</type>    </wpt>    <wpt lat="41.9349444547666" lon="1.23574997124688">        <ele>645</ele>        <name>UPISA</name>        <desc>UPISA</desc>        <type>Significant point</type>    </wpt>    <wpt lat="40.8035555743742" lon="0.639277789743135">        <ele>113</ele>        <name>AMPOL</name>        <desc>AMPOL</desc>        <type>Significant point</type>    </wpt>    <wpt lat="40.7116567365628" lon="0.542967259883881">        <ele>88</ele>        <name>WP006</name>        <desc>WP006</desc>        <type>Unknown Type</type>        <extensions>            <planned_altitude>697.6</planned_altitude>        </extensions>    </wpt>    <wpt lat="40.4716666821964" lon="0.476111069329935">        <ele>11</ele>        <name>E</name>        <desc>LEVN</desc>        <type>Fix</type>    </wpt>    <wpt lat="39.9100000099058" lon="0">        <ele>0</ele>        <name>BENJIS</name>        <desc>LEVC</desc>        <type>Fix</type>    </wpt>    <wpt lat="39.6561111286757" lon="-0.212222185050681">        <ele>0</ele>        <name>N</name>        <desc>LEVC</desc>        <type>Fix</type>    </wpt>    <wpt lat="39.5697222260001" lon="-0.282777780913431">        <ele>1</ele>        <name>N-1</name>        <desc>LEVC</desc>        <type>Fix</type>    </wpt>    <wpt lat="39.1866666512631" lon="-0.217222240182461">        <ele>16</ele>        <name>SE-1</name>        <desc>LEVC</desc>        <type>Fix</type>    </wpt>    <wpt lat="38.76088" lon="0.198861">        <ele>14</ele>        <name>WP012</name>        <desc>WP012</desc>        <type>Unknown Type</type>    </wpt>    <wpt lat="38.5308333453907" lon="-0.116944415583249">        <ele>0</ele>        <name>BENIDORM</name>        <desc>LEVC</desc>        <type>Fix</type>    </wpt>    <wpt lat="38.4406000297703" lon="-0.475286060694339">        <ele>146.913604736328</ele>        <name>LEMU</name>        <desc>Mutxamel</desc>        <type>Airport</type>        <extensions/>    </wpt>    <rte>        <name>2022-09-17 Toulouse Lasbordes - Mutxamel</name>        <rtept lat="43.5877800073944" lon="1.49862000980449">            <ele>140.207992553711</ele>            <name>LFCL</name>            <desc>TOULOUSE LASBORDES</desc>            <type>Airport</type>            <extensions>                <planned_altitude_after>300</planned_altitude_after>            </extensions>        </rtept>        <rtept lat="43.4833333031115" lon="1.6666666574002">            <ele>242</ele>            <name>SL</name>            <desc>LFBO</desc>            <type>Fix</type>        </rtept>        <rtept lat="42.7238999968521" lon="1.23580000044642">            <ele>2389</ele>            <name>NATPI</name>            <desc>NATPI</desc>            <type>Significant point</type>        </rtept>        <rtept lat="41.9349444547666" lon="1.23574997124688">            <ele>645</ele>            <name>UPISA</name>            <desc>UPISA</desc>            <type>Significant point</type>        </rtept>        <rtept lat="40.8035555743742" lon="0.639277789743135">            <ele>113</ele>            <name>AMPOL</name>            <desc>AMPOL</desc>            <type>Significant point</type>        </rtept>        <rtept lat="40.7116567365628" lon="0.542967259883881">            <ele>88</ele>            <name>WP006</name>            <desc>WP006</desc>            <type>Unknown Type</type>            <extensions>                <planned_altitude>697.6</planned_altitude>            </extensions>        </rtept>        <rtept lat="40.4716666821964" lon="0.476111069329935">            <ele>11</ele>            <name>E</name>            <desc>LEVN</desc>            <type>Fix</type>        </rtept>        <rtept lat="39.9100000099058" lon="0">            <ele>0</ele>            <name>BENJIS</name>            <desc>LEVC</desc>            <type>Fix</type>        </rtept>        <rtept lat="39.6561111286757" lon="-0.212222185050681">            <ele>0</ele>            <name>N</name>            <desc>LEVC</desc>            <type>Fix</type>        </rtept>        <rtept lat="39.5697222260001" lon="-0.282777780913431">            <ele>1</ele>            <name>N-1</name>            <desc>LEVC</desc>            <type>Fix</type>        </rtept>        <rtept lat="39.1866666512631" lon="-0.217222240182461">            <ele>16</ele>            <name>SE-1</name>            <desc>LEVC</desc>            <type>Fix</type>        </rtept>        <rtept lat="38.76088" lon="0.198861">            <ele>14</ele>            <name>WP012</name>            <desc>WP012</desc>            <type>Unknown Type</type>        </rtept>        <rtept lat="38.5308333453907" lon="-0.116944415583249">            <ele>0</ele>            <name>BENIDORM</name>            <desc>LEVC</desc>            <type>Fix</type>        </rtept>        <rtept lat="38.4406000297703" lon="-0.475286060694339">            <ele>146.913604736328</ele>            <name>LEMU</name>            <desc>Mutxamel</desc>            <type>Airport</type>            <extensions/>        </rtept>    </rte></gpx>