<?xml version="1.0" encoding="UTF-8"?><gpx version="1.1" creator="Air Navigation Pro for iOS and Android" xmlns="http://www.topografix.com/GPX/1/1" xmlns:xsi="http://www.w3.org/2001/XMLSchema-instance" xsi:schemaLocation="http://www.topografix.com/GPX/1/1 http://www.topografix.com/GPX/1/1/gpx.xsd">    <metadata>        <extensions>            <userDefinedSpeed>61.733333</userDefinedSpeed>        </extensions>    </metadata>    <wpt lat="30.3225000013798" lon="-9.41138886662958">        <ele>77</ele>        <name>GMAD</name>        <desc>AGADIR / Al Massira</desc>        <type>Airport</type>        <extensions>            <planned_altitude_after>226</planned_altitude_after>        </extensions>    </wpt>    <wpt lat="30.180833405378" lon="-9.54000002557568">        <ele>77</ele>        <name>VASIR</name>        <desc>VASIR</desc>        <type>Significant point</type>    </wpt>    <wpt lat="30.0808333630391" lon="-9.66500002638253">        <ele>48</ele>        <name>RILAT</name>        <desc>RILAT</desc>        <type>Fix</type>    </wpt>    <wpt lat="29.58" lon="-10.035">        <ele>56</ele>        <name>MIRLEFT</name>        <desc>MIRLEFT</desc>        <type>Unknown Type</type>    </wpt>    <wpt lat="29.3667000078437" lon="-10.1877999556898">        <ele>57.9119987487793</ele>        <name>GMMF</name>        <desc>Sidi Ifni Xx Airport</desc>        <type>Airport</type>        <extensions/>    </wpt>    <wpt lat="28.96528" lon="-10.61028">        <ele>-4</ele>        <name>WP006</name>        <desc>WP006</desc>        <type>Unknown Type</type>    </wpt>    <wpt lat="28.67945" lon="-11.11389">        <ele>-1</ele>        <name>FOUM EL QUED DRAA</name>        <desc>FOUM EL QUED DRAA</desc>        <type>Unknown Type</type>    </wpt>    <wpt lat="28.29278" lon="-11.5375">        <ele>0</ele>        <name>EMBOUCHURE OUED CHEBEIKA</name>        <desc>EMBOUCHURE OUED CHEBEIKA</desc>        <type>Unknown Type</type>    </wpt>    <wpt lat="28.04861" lon="-12.22944">        <ele>0</ele>        <name>FOUM AGOUTIR</name>        <desc>FOUM AGOUTIR</desc>        <type>Unknown Type</type>    </wpt>    <wpt lat="27.93578" lon="-12.92184">        <ele>11</ele>        <name>Tarfaya</name>        <desc>TARFAYA</desc>        <type>Unknown Type</type>    </wpt>    <rte>        <name>2022-09-20 AGADIR  Al Massira - Tarfaya</name>        <rtept lat="30.3225000013798" lon="-9.41138886662958">            <ele>77</ele>            <name>GMAD</name>            <desc>AGADIR / Al Massira</desc>            <type>Airport</type>            <extensions>                <planned_altitude_after>226</planned_altitude_after>            </extensions>        </rtept>        <rtept lat="30.180833405378" lon="-9.54000002557568">            <ele>77</ele>            <name>VASIR</name>            <desc>VASIR</desc>            <type>Significant point</type>        </rtept>        <rtept lat="30.0808333630391" lon="-9.66500002638253">            <ele>48</ele>            <name>RILAT</name>            <desc>RILAT</desc>            <type>Fix</type>        </rtept>        <rtept lat="29.58" lon="-10.035">            <ele>56</ele>            <name>MIRLEFT</name>            <desc>MIRLEFT</desc>            <type>Unknown Type</type>        </rtept>        <rtept lat="29.3667000078437" lon="-10.1877999556898">            <ele>57.9119987487793</ele>            <name>GMMF</name>            <desc>Sidi Ifni Xx Airport</desc>            <type>Airport</type>            <extensions/>        </rtept>        <rtept lat="28.96528" lon="-10.61028">            <ele>-4</ele>            <name>WP006</name>            <desc>WP006</desc>            <type>Unknown Type</type>        </rtept>        <rtept lat="28.67945" lon="-11.11389">            <ele>-1</ele>            <name>FOUM EL QUED DRAA</name>            <desc>FOUM EL QUED DRAA</desc>            <type>Unknown Type</type>        </rtept>        <rtept lat="28.29278" lon="-11.5375">            <ele>0</ele>            <name>EMBOUCHURE OUED CHEBEIKA</name>            <desc>EMBOUCHURE OUED CHEBEIKA</desc>            <type>Unknown Type</type>        </rtept>        <rtept lat="28.04861" lon="-12.22944">            <ele>0</ele>            <name>FOUM AGOUTIR</name>            <desc>FOUM AGOUTIR</desc>            <type>Unknown Type</type>        </rtept>        <rtept lat="27.93578" lon="-12.92184">            <ele>11</ele>            <name>Tarfaya</name>            <desc>TARFAYA</desc>            <type>Unknown Type</type>        </rtept>    </rte></gpx>