<?xml version="1.0" encoding="UTF-8"?><gpx version="1.1" creator="Air Navigation Pro for iOS and Android" xmlns="http://www.topografix.com/GPX/1/1" xmlns:xsi="http://www.w3.org/2001/XMLSchema-instance" xsi:schemaLocation="http://www.topografix.com/GPX/1/1 http://www.topografix.com/GPX/1/1/gpx.xsd">    <metadata>        <extensions>            <userDefinedSpeed>61.733333</userDefinedSpeed>        </extensions>    </metadata>    <wpt lat="16.0498055337637" lon="-16.4610555999272">        <ele>3</ele>        <name>GOSS</name>        <desc>SAINT-LOUIS</desc>        <type>Airport</type>        <extensions>            <planned_altitude_after>160</planned_altitude_after>        </extensions>    </wpt>    <wpt lat="16.4386111382946" lon="-16.3611110823535">        <ele>0</ele>        <name>ARBEN</name>        <desc>ARBEN</desc>        <type>Significant point</type>    </wpt>    <wpt lat="17.9289166213649" lon="-16.0860833388149">        <ele>0</ele>        <name>TUTAN</name>        <desc>TUTAN</desc>        <type>Significant point</type>    </wpt>    <wpt lat="18.7545" lon="-16.16064">        <ele>0</ele>        <name>WP004</name>        <desc>WP004</desc>        <type>Unknown Type</type>    </wpt>    <wpt lat="19.3497222233198" lon="-16.4277777679341">        <ele>7</ele>        <name>BOTLO</name>        <desc>BOTLO</desc>        <type>Significant point</type>    </wpt>    <wpt lat="19.9722222491295" lon="-16.6677777297638">        <ele>0</ele>        <name>ERENA</name>        <desc>ERENA</desc>        <type>Significant point</type>    </wpt>    <wpt lat="20.683333314752" lon="-16.6833332874669">        <ele>0</ele>        <name>SE (SIERRA ECHO)</name>        <desc>GQPP</desc>        <type>Fix</type>    </wpt>    <wpt lat="20.7716666954512" lon="-17.0466666731546">        <ele>5</ele>        <name>S1 (SIERRA UNITE)</name>        <desc>GQPP</desc>        <type>Fix</type>    </wpt>    <wpt lat="20.8583333512016" lon="-17.0299999799131">        <ele>0</ele>        <name>S2 (SIERRA DEUX)</name>        <desc>GQPP</desc>        <type>Fix</type>    </wpt>    <wpt lat="20.9330999704156" lon="-17.0299999799131">        <ele>3</ele>        <name>GQPP</name>        <desc>NOUADHIBOU</desc>        <type>Airport</type>        <extensions/>    </wpt>    <rte>        <name>2022-09-24 Saint-Louis Nouadhibou</name>        <rtept lat="16.0498055337637" lon="-16.4610555999272">            <ele>3</ele>            <name>GOSS</name>            <desc>SAINT-LOUIS</desc>            <type>Airport</type>            <extensions>                <planned_altitude_after>160</planned_altitude_after>            </extensions>        </rtept>        <rtept lat="16.4386111382946" lon="-16.3611110823535">            <ele>0</ele>            <name>ARBEN</name>            <desc>ARBEN</desc>            <type>Significant point</type>        </rtept>        <rtept lat="17.9289166213649" lon="-16.0860833388149">            <ele>0</ele>            <name>TUTAN</name>            <desc>TUTAN</desc>            <type>Significant point</type>        </rtept>        <rtept lat="18.7545" lon="-16.16064">            <ele>0</ele>            <name>WP004</name>            <desc>WP004</desc>            <type>Unknown Type</type>        </rtept>        <rtept lat="19.3497222233198" lon="-16.4277777679341">            <ele>7</ele>            <name>BOTLO</name>            <desc>BOTLO</desc>            <type>Significant point</type>        </rtept>        <rtept lat="19.9722222491295" lon="-16.6677777297638">            <ele>0</ele>            <name>ERENA</name>            <desc>ERENA</desc>            <type>Significant point</type>        </rtept>        <rtept lat="20.683333314752" lon="-16.6833332874669">            <ele>0</ele>            <name>SE (SIERRA ECHO)</name>            <desc>GQPP</desc>            <type>Fix</type>        </rtept>        <rtept lat="20.7716666954512" lon="-17.0466666731546">            <ele>5</ele>            <name>S1 (SIERRA UNITE)</name>            <desc>GQPP</desc>            <type>Fix</type>        </rtept>        <rtept lat="20.8583333512016" lon="-17.0299999799131">            <ele>0</ele>            <name>S2 (SIERRA DEUX)</name>            <desc>GQPP</desc>            <type>Fix</type>        </rtept>        <rtept lat="20.9330999704156" lon="-17.0299999799131">            <ele>3</ele>            <name>GQPP</name>            <desc>NOUADHIBOU</desc>            <type>Airport</type>            <extensions/>        </rtept>    </rte></gpx>